{
"type": "FeatureCollection",
"generator": "overpass-turbo",
"copyright": "The data included in this document is from www.openstreetmap.org. The data is made available under ODbL.",
"timestamp": "2026-05-10T10:18:15Z",
"name": "market",
"features": [
{ "type": "Feature", "id": "way/301441357", "properties": { "@id": "way/301441357", "addr:city": "Vĩnh Yên", "addr:district": "Đống Đa", "addr:province": "Vĩnh Phúc", "addr:subdistrict": "Đống Đa, Vĩnh Yên, Vĩnh Phúc, Việt Nam", "amenity": "marketplace", "building": "yes", "name": "Chợ Vĩnh Yên", "opening_hours": "sunrise-sunset" }, "geometry": { "type": "Polygon", "coordinates": [ [ [ 105.5986174, 21.3092 ], [ 105.5982492, 21.3090831 ], [ 105.598391, 21.3086958 ], [ 105.5991704, 21.3089478 ], [ 105.5990533, 21.3093095 ], [ 105.5986174, 21.3092 ] ] ] } },
{ "type": "Feature", "id": "way/1465488632", "properties": { "@id": "way/1465488632", "building": "commercial" }, "geometry": { "type": "Polygon", "coordinates": [ [ [ 105.6234858, 21.3044181 ], [ 105.6238924, 21.3038194 ], [ 105.6242289, 21.3040178 ], [ 105.6238221, 21.3046164 ], [ 105.6234858, 21.3044181 ] ] ] } },
{ "type": "Feature", "id": "node/1874093503", "properties": { "@id": "node/1874093503", "name": "Trung Tâm đào tạo lái xe ô tô Hùng Vương", "shop": "car" }, "geometry": { "type": "Point", "coordinates": [ 105.689186, 21.2356629 ] } },
{ "type": "Feature", "id": "node/4677793389", "properties": { "@id": "node/4677793389", "addr:housenumber": "340", "addr:street": "Mê Linh", "name": "340 Mê Linh", "name:en": "340 Me Linh", "shop": "clothes" }, "geometry": { "type": "Point", "coordinates": [ 105.6095557, 21.3140972 ] } },
{ "type": "Feature", "id": "node/4760841724", "properties": { "@id": "node/4760841724", "addr:housenumber": "toàn nguyệt 01", "shop": "convenience" }, "geometry": { "type": "Point", "coordinates": [ 105.58141, 21.237681 ] } },
{ "type": "Feature", "id": "node/4993711221", "properties": { "@id": "node/4993711221", "addr:housenumber": "30A", "addr:street": "Trần Quốc Tuấn", "internet_access": "wlan", "name": "Shop Hằng - Thời trang Nam Nữ", "opening_hours": "24/7", "phone": "02113860193", "shop": "clothes" }, "geometry": { "type": "Point", "coordinates": [ 105.59683, 21.3075152 ] } },
{ "type": "Feature", "id": "node/5106781423", "properties": { "@id": "node/5106781423", "addr:housenumber": "440", "addr:street": "Đường Mê Linh", "name": "Hưng Thịnh Phát", "name:vi": "Hưng Thịnh Phát", "shop": "tyres" }, "geometry": { "type": "Point", "coordinates": [ 105.6216006, 21.3035252 ] } },
{ "type": "Feature", "id": "node/5367503221", "properties": { "@id": "node/5367503221", "internet_access": "wlan", "name": "GO! Vĩnh Phúc", "shop": "supermarket" }, "geometry": { "type": "Point", "coordinates": [ 105.629697, 21.2939294 ] } },
{ "type": "Feature", "id": "node/5367505221", "properties": { "@id": "node/5367505221", "name:en": "Co-op Mart", "shop": "supermarket" }, "geometry": { "type": "Point", "coordinates": [ 105.6141032, 21.3129445 ] } },
{ "type": "Feature", "id": "node/5367749426", "properties": { "@id": "node/5367749426", "name": "Soiva Plaza", "shop": "department_store" }, "geometry": { "type": "Point", "coordinates": [ 105.6138535, 21.3125551 ] } },
{ "type": "Feature", "id": "node/6520653288", "properties": { "@id": "node/6520653288", "addr:housenumber": "36", "addr:street": "Mê Linh", "shop": "tyres" }, "geometry": { "type": "Point", "coordinates": [ 105.5989743, 21.3133403 ] } },
{ "type": "Feature", "id": "node/13094431395", "properties": { "@id": "node/13094431395", "brand": "Honda", "name": "Honda head", "operator": "Honda", "shop": "motorcycle_repair" }, "geometry": { "type": "Point", "coordinates": [ 105.6205085, 21.3042626 ] } },
{ "type": "Feature", "id": "node/13094460272", "properties": { "@id": "node/13094460272", "brand": "Honda", "name": "Honda head", "operator": "Honda", "shop": "motorcycle_repair" }, "geometry": { "type": "Point", "coordinates": [ 105.6907095, 21.2323107 ] } },
{ "type": "Feature", "id": "node/13094480242", "properties": { "@id": "node/13094480242", "brand": "Honda", "name": "Honda head", "operator": "Honda", "shop": "motorcycle_repair" }, "geometry": { "type": "Point", "coordinates": [ 105.691147, 21.2315426 ] } },
{ "type": "Feature", "id": "node/13611817802", "properties": { "@id": "node/13611817802", "shop": "convenience" }, "geometry": { "type": "Point", "coordinates": [ 105.5969845, 21.3144419 ] } },
{ "type": "Feature", "id": "node/13611817803", "properties": { "@id": "node/13611817803", "shop": "electronics" }, "geometry": { "type": "Point", "coordinates": [ 105.5977454, 21.3132107 ] } },
{ "type": "Feature", "id": "node/13611824401", "properties": { "@id": "node/13611824401", "shop": "electronics" }, "geometry": { "type": "Point", "coordinates": [ 105.5967171, 21.3138896 ] } },
{ "type": "Feature", "id": "node/13611824501", "properties": { "@id": "node/13611824501", "addr:housenumber": "19", "addr:street": "Phố Lê Xoay", "name": "Winmart+", "shop": "convenience" }, "geometry": { "type": "Point", "coordinates": [ 105.5967099, 21.3089252 ] } },
{ "type": "Feature", "id": "node/13640055903", "properties": { "@id": "node/13640055903", "name": "Winmart", "shop": "convenience" }, "geometry": { "type": "Point", "coordinates": [ 105.60153, 21.30665 ] } },
{ "type": "Feature", "properties": { "id": null, "@id": null, "addr:city": null, "addr:district": null, "addr:housenumber": null, "addr:province": null, "addr:street": null, "addr:subdistrict": null, "amenity": null, "brand": null, "building": null, "internet_access": null, "name": "Chợ Đồng Tâm ( chợ Cói)", "name:en": null, "name:vi": null, "opening_hours": null, "operator": null, "phone": null, "shop": null }, "geometry": { "type": "Point", "coordinates": [ 105.571495433142942, 21.306760410993792 ] } },
{ "type": "Feature", "properties": { "id": null, "@id": null, "addr:city": null, "addr:district": null, "addr:housenumber": null, "addr:province": null, "addr:street": null, "addr:subdistrict": null, "amenity": null, "brand": null, "building": null, "internet_access": null, "name": "Chợ Nông Thôn Mới", "name:en": null, "name:vi": null, "opening_hours": null, "operator": null, "phone": null, "shop": null }, "geometry": { "type": "Point", "coordinates": [ 105.610280948033832, 21.279086279860365 ] } }
]
}
